,Unnamed: 0,univNameCn,univTags,univCategory,province,score,ranking,lng,lat,tlng,tlat
0,0,清华大学,一流大学A类 985 211,综合,北京,969.2,1,116.326759,40.003304,116.32062961028434,40.00200283809963
1,1,北京大学,一流大学A类 985 211,综合,北京,855.3,2,116.308264,39.995304,116.30217437761777,39.994036335113194
2,2,浙江大学,一流大学A类 985 211,综合,浙江,768.7,3,120.164517,30.292956,120.15983483463313,30.29529151982334
3,3,上海交通大学,一流大学A类 985 211,综合,上海,723.4,4,121.425413,31.206075,121.4207733649463,31.207928809528624
4,4,南京大学,一流大学A类 985 211,综合,江苏,654.8,5,118.961365,32.110012,118.95625476054938,32.1121781454008
5,5,复旦大学,一流大学A类 985 211,综合,上海,649.7,6,121.498718,31.336472,121.49425739316584,31.338430137839346
6,6,中国科学技术大学,一流大学A类 985 211,理工,安徽,577.0,7,116.757576,39.588718,116.75153126087075,39.58753057457058
7,7,华中科技大学,一流大学A类 985 211,综合,湖北,574.3,8,114.434479,30.511049,114.42896996215448,30.51336853468705
8,8,武汉大学,一流大学A类 985 211,综合,湖北,567.9,9,114.365248,30.53786,114.35972441626767,30.540189971131507
9,9,西安交通大学,一流大学A类 985 211,综合,陕西,537.9,10,108.98565,34.250189,108.98085778226032,34.251686598688934
10,10,哈尔滨工业大学,一流大学A类 985 211,理工,黑龙江,522.6,11,126.632884,45.743721,126.62694802540432,45.74178696248515
11,11,中山大学,一流大学A类 985 211,综合,广东,519.3,12,113.391838,22.530892,113.38635710148002,22.5335839239551
12,12,北京师范大学,一流大学A类 985 211,师范,北京,518.3,13,116.364139,39.962637,116.35793253905571,39.96126930803788
13,13,四川大学,一流大学A类 985 211,综合,四川,516.6,14,104.083748,30.630869,104.08121780856227,30.633283550250702
14,14,北京航空航天大学,一流大学A类 985 211,理工,北京,513.8,15,116.347313,39.981771,116.34113916550456,39.98043162957224
15,15,同济大学,一流大学A类 985 211,理工,上海,508.3,16,121.210861,31.288713,121.20639726057298,31.290676824117092
16,16,东南大学,一流大学A类 985 211,综合,江苏,488.1,17,120.376091,31.482067,120.37140071460831,31.48385426411282
17,17,中国人民大学,一流大学A类 985 211,综合,北京,487.8,18,113.316177,23.120075,113.31078174223103,23.1226954286036
18,18,北京理工大学,一流大学A类 985 211,理工,北京,474.0,19,116.310583,39.960022,116.3044932328367,39.958751843653666
19,19,南开大学,一流大学A类 985 211,综合,天津,465.3,20,117.16999,39.103958,117.16362392532307,39.10287404166873
20,20,山东大学,一流大学A类 985 211,综合,山东,447.0,21,117.059475,36.678325,117.05342384373758,36.677913718187845
21,21,天津大学,一流大学A类 985 211,理工,天津,444.3,22,117.169884,39.113447,117.16351652121472,39.11235705426703
22,22,中南大学,一流大学A类 985 211,综合,湖南,442.2,23,112.926247,28.174528,112.92083148042688,28.178056644943524
23,23,吉林大学,一流大学A类 985 211,综合,吉林,435.7,24,125.280441,43.827437,125.27404440468403,43.82506565077524
24,24,西北工业大学,一流大学A类 985 211,理工,陕西,430.5,25,108.904854,34.241802,108.90026922111028,34.243432585247916
25,25,厦门大学,一流大学A类 985 211,综合,福建,427.8,26,118.095414,24.436803,118.09044050285239,24.43944183362634
26,26,华南理工大学,一流大学A类 985 211,理工,广东,419.8,27,113.367149,23.110704,113.36165637933108,23.11323690088052
27,27,大连理工大学,一流大学A类 985 211,理工,辽宁,418.2,28,121.529015,38.880379,121.5239212173118,38.87951522529336
28,28,华东师范大学,一流大学A类 985 211,师范,上海,401.8,29,121.390923,31.230452,121.38627702438757,31.23229159018125
29,29,中国农业大学,一流大学A类 985 211,农业,北京,400.4,30,116.346695,39.991074,116.34052135887953,39.98973539408389
30,30,电子科技大学,一流大学A类 985 211,理工,四川,398.8,31,108.375046,30.790291,108.37047770871105,30.792580724642043
31,31,湖南大学,一流大学B类 985 211,综合,湖南,393.5,32,112.943119,28.177444,112.93767449094496,28.18095193695073
32,32,北京科技大学,一流学科 211,理工,北京,379.4,33,116.595156,39.918741,116.58936946829387,39.917700696150476
33,33,重庆大学,一流大学A类 985 211,综合,重庆,365.5,34,106.46773,29.561465,106.46377948094664,29.564074197885397
34,34,南京航空航天大学,一流学科 211,理工,江苏,358.6,35,118.820289,32.035021,118.81514307995616,32.03712261630204
35,35,东北大学,一流大学B类 985 211,理工,辽宁,356.1,36,123.419479,41.767193,123.41333569993462,41.7647510434488
36,36,南京理工大学,一流学科 211,理工,江苏,356.0,37,118.857244,32.026884,118.85217516548671,32.02905178226541
37,37,西安电子科技大学,一流学科 211,理工,陕西,355.1,38,108.915307,34.231049,108.91071417366439,34.23268151509849
38,38,兰州大学,一流大学A类 985 211,综合,甘肃,353.4,39,103.857658,36.045806,103.85529759078938,36.04617349424538
39,39,北京交通大学,一流学科 211,理工,北京,349.9,40,116.33934,39.950612,116.33318804336801,39.94928884001515
40,40,南方科技大学,,综合,广东,345.8,41,113.987724,22.59359,113.98276789650328,22.596503001950396
41,41,华中农业大学,一流学科 211,农业,湖北,338.5,42,114.356026,30.474377,114.35052044346762,30.47674137979301
42,42,上海大学,一流学科 211,综合,上海,333.0,43,121.392456,31.315883,121.38780132133286,31.317686003550648
43,43,苏州大学,一流学科 211,综合,江苏,327.0,44,120.641182,31.302245,120.63698402667988,31.30440009098222
44,44,华东理工大学,一流学科 211,理工,上海,324.5,45,120.568047,31.300606,120.56383776095609,31.302767635035927
45,45,华中师范大学,一流学科 211,师范,湖北,322.0,46,114.026222,22.537685,114.02117445594426,22.540489206448918
46,46,南京师范大学,一流学科 211,师范,江苏,321.3,47,118.911954,32.093466,118.90692582348649,32.0956930584984
47,47,中国地质大学（武汉）,一流学科 211,理工,湖北,320.2,48,114.400065,30.528835,114.3945219353152,30.531134114800413
48,48,东北师范大学,一流学科 211,师范,吉林,319.7,49,125.333496,43.862759,125.32697264058916,43.860324545538276
49,49,哈尔滨工程大学,一流学科 211,理工,黑龙江,319.0,50,126.681632,45.776638,126.67556810474467,45.77463126644194
50,50,西南交通大学,一流学科 211,理工,四川,318.0,51,103.445503,29.57567,103.44323749687561,29.578269798629552
51,51,南京农业大学,一流学科 211,农业,江苏,316.1,52,118.839686,32.033444,118.83458129400303,32.03558154689016
52,52,郑州大学,一流大学B类 211,综合,河南,312.8,53,113.533269,34.820615,113.52706719499372,34.8216320386797
53,53,北京邮电大学,一流学科 211,理工,北京,312.5,54,116.358103,39.961554,116.35190897132824,39.960196306365404
54,54,武汉理工大学,一流学科 211,理工,湖北,312.2,55,114.352748,30.514768,114.34724368448634,30.517126285067516
55,55,中国海洋大学,一流大学A类 985 211,综合,山东,311.0,56,120.336266,36.06184,120.3311948464855,36.06164301981984
56,56,暨南大学,一流学科 211,综合,广东,307.4,57,113.347717,23.128052,113.34225724468358,23.130610354448134
57,57,中国石油大学（北京）,一流学科 211,理工,北京,307.3,58,116.245976,40.220419,116.23990295021974,40.219178769716336
58,58,北京工业大学,一流学科 211,理工,北京,306.0,59,116.480595,39.875357,116.4744987173065,39.87406331126213
59,59,河海大学,一流学科 211,理工,江苏,303.4,60,119.980309,31.818939,119.97555363166582,31.82097719418307
60,60,中国矿业大学,一流学科 211,理工,江苏,301.6,61,117.20002,34.221153,117.19426694010623,34.222407080759865
61,61,北京化工大学,一流学科 211,理工,北京,296.7,62,116.420818,39.970398,116.41457221844868,39.96899488574046
62,62,中国地质大学（北京）,一流学科 211,理工,北京,295.5,63,116.348923,39.991346,116.34274440897383,39.990003281219934
63,63,西北大学,一流学科 211,综合,陕西,293.0,64,108.927414,34.248524,108.92280284304252,34.25014175148847
64,64,江南大学,一流学科 211,综合,江苏,292.9,65,108.273206,22.781166,108.2692890608416,22.78401705891347
65,65,上海科技大学,,综合,上海,288.7,66,121.594551,31.17614,121.5903515790709,31.178367178674648
66,66,中国石油大学（华东）,一流学科 211,理工,山东,287.4,67,108.648277,21.973679,108.64454023025372,21.976578550219408
67,67,西南大学,一流学科 211,综合,重庆,286.5,68,106.419098,29.820271,106.41506172027186,29.822749788576147
68,68,中国矿业大学（北京）,一流学科 211,理工,北京,285.5,69,116.349613,39.999426,116.34343187747159,39.99808168475808
69,69,深圳大学,,综合,广东,280.4,70,113.935097,22.527939,113.93023264766315,22.530974905307943
70,70,陕西师范大学,一流学科 211,师范,陕西,280.1,71,108.953253,34.206264,108.94858250957525,34.20785870442596
71,71,江苏大学,,综合,江苏,276.9,72,118.704677,32.178798,118.699493236916,32.18090408162233
72,72,浙江工业大学,,理工,浙江,275.6,73,120.04121,30.228002,120.03644236973223,30.230357849302948
73,73,北京林业大学,一流学科 211,林业,北京,275.0,74,116.341404,40.002502,116.3352408031306,40.00117283454596
74,74,华南师范大学,一流学科 211,师范,广东,274.7,75,113.518066,23.354553,113.51278880530873,23.357197978278343
75,75,西北农林科技大学,一流大学B类 985 211,农业,陕西,273.7,76,108.078491,34.272434,108.07358437640046,34.273710395984274
76,76,扬州大学,,综合,江苏,269.5,77,119.42163,32.388299,119.41615393585387,32.390181012085414
77,77,南昌大学,一流学科 211,综合,江西,268.9,78,115.802686,28.665028,115.79763983871499,28.668260008827957
78,78,福州大学,一流学科 211,理工,福建,267.7,79,119.19505,26.057266,119.19022041628858,26.06033800920865
79,79,华北电力大学,一流学科 211,理工,北京,263.2,80,116.33358,39.988014,116.32743701260974,39.986700470076315
80,80,东华大学,一流学科 211,理工,上海,262.8,81,121.210938,31.059938,121.20649379512243,31.062016451928123
81,81,合肥工业大学,一流学科 211,理工,安徽,262.7,82,117.293767,31.846725,117.28823678065399,31.84871151423627
82,82,云南大学,一流大学B类 211,综合,云南,262.1,83,102.700578,25.052952,102.69916270491669,25.055941622131158
83,83,宁波大学,一流学科,综合,浙江,261.4,84,121.635098,29.911925,121.63098375370532,29.914533001446806
84,84,首都师范大学,一流学科,师范,北京,261.1,85,116.323341,39.924248,116.31722867334383,39.922956339176324
85,85,湖南师范大学,一流学科 211,师范,湖南,259.6,86,112.946191,28.183942,112.94073972640764,28.18744537970178
86,86,南京工业大学,,理工,江苏,259.5,87,118.642381,32.077725,118.63733500068565,32.079923008104274
87,87,长安大学,一流学科 211,理工,陕西,250.2,88,108.955053,34.228959,108.95037508949672,34.23054196117797
88,88,福建师范大学,,师范,福建,248.2,89,119.37986,25.704958,119.37495533345324,25.707690687058495
89,89,安徽大学,一流学科 211,综合,安徽,243.1,90,117.255736,31.844926,117.25025217602172,31.84693931621217
90,90,南京信息工程大学,一流学科,理工,江苏,240.9,91,118.715506,32.203356,118.71030102894127,32.205449437823724
91,91,上海理工大学,,理工,上海,240.7,92,121.553803,31.290336,121.54952857776318,31.292461065430928
92,92,华南农业大学,,农业,广东,238.3,93,113.360382,23.167627,113.35489638459043,23.170147895126703
93,93,广西大学,一流学科 211,综合,广西,237.0,94,108.288135,22.839381,108.28420212332283,22.842196898434956
94,94,南京邮电大学,一流学科,理工,江苏,235.7,95,118.814249,32.070478,118.80908758542026,32.07257665937517
95,95,燕山大学,,理工,河北,235.7,95,119.539719,39.904507,119.53380059482873,39.903313954779456
96,96,河南大学,一流学科,综合,河南,234.6,97,113.541989,34.792565,113.53582070779791,34.79363422795065
97,97,湖北大学,,综合,湖北,232.9,98,114.331617,30.576571,114.32614083010263,30.578947550993394
98,98,广州大学,,综合,广东,232.7,99,113.370555,23.039919,113.3650622179523,23.042476834919647
99,99,青岛大学,,综合,山东,231.4,100,120.423644,36.067508,120.41852974461608,36.06722918801532
100,100,湘潭大学,,综合,湖南,229.9,101,112.863096,27.882942,112.85769110513144,27.88640288543534
101,101,广东工业大学,,理工,广东,229.6,102,113.396961,23.039789,113.39144365211847,23.042321355757036
102,102,浙江师范大学,,师范,浙江,229.2,103,121.347948,28.485432,121.34359502725852,28.48851425953206
103,103,大连海事大学,一流学科 211,理工,辽宁,228.4,104,121.529038,38.869782,121.52394550840455,38.8689243118116
104,104,上海师范大学,,师范,上海,227.3,105,121.418362,31.160404,121.41372065027537,31.162275776236086
105,105,杭州电子科技大学,,理工,浙江,226.9,106,120.3432,30.314207,120.33864945541215,30.316539694399125
106,106,武汉科技大学,,理工,湖北,226.6,107,114.370253,30.623761,114.36471602059403,30.626051443328496
107,107,南京林业大学,一流学科,林业,江苏,225.3,108,118.816826,32.078682,118.81166898566968,32.08078697872611
108,108,河北工业大学,一流学科 211,理工,天津,223.8,109,114.463313,37.97725,114.45712024946008,37.97645497077397
109,109,山东师范大学,,师范,山东,223.8,109,116.834412,36.543625,116.8288013849452,36.543531428134116
110,110,浙江理工大学,,理工,浙江,221.8,111,120.362572,30.316087,120.35799459873262,30.31838561008223
111,111,山西大学,,综合,山西,221.0,112,112.588507,37.801171,112.58227115316615,37.80068192533165
112,112,太原理工大学,一流学科 211,理工,山西,219.8,113,112.518158,37.859976,112.51174312467889,37.85935299346576
113,113,东北林业大学,一流学科 211,林业,黑龙江,218.9,114,126.634252,45.720355,126.62831691137058,45.71841348908814
114,114,河北大学,,综合,河北,217.0,115,114.54876,38.02342,114.54289183253078,38.02287071461549
115,115,东北农业大学,一流学科 211,农业,黑龙江,216.3,116,126.726219,45.743717,126.7200492260288,45.741629479949864
116,116,江西师范大学,,师范,江西,215.5,117,116.030401,28.682091,116.0253201258199,28.68519527344908
117,117,西安建筑科技大学,,理工,陕西,215.5,117,108.965222,34.239635,108.96050917211475,34.241191174297306
118,118,杭州师范大学,,师范,浙江,215.2,119,120.394204,30.315728,120.38960658874952,30.317991910584574
119,119,内蒙古大学,一流学科 211,综合,内蒙古,214.9,120,111.690726,40.812259,111.68391208563907,40.81091006863083
120,120,福建农林大学,,农业,福建,214.0,121,119.238292,26.082845,119.23352294616421,26.08598842781223
121,121,江苏师范大学,,师范,江苏,213.4,122,117.18049,34.197566,117.17470612266551,34.19879286861892
122,122,西安理工大学,,理工,陕西,213.2,123,108.996089,34.221176,108.9912554468619,34.222653738790044
123,123,辽宁大学,一流学科 211,综合,辽宁,212.6,124,123.404758,41.833936,123.39860713613155,41.83148913809165
124,124,北京建筑大学,,理工,北京,210.8,125,116.341093,39.936144,116.33493887990893,39.934818081540136
125,125,安徽师范大学,,师范,安徽,210.5,126,118.376057,31.282868,118.3706616164298,31.28474461176666
126,126,河南师范大学,,师范,河南,210.4,127,113.849865,34.780709,113.84389361859695,34.78180637075725
127,127,长沙理工大学,,理工,湖南,209.5,128,112.977322,28.155963,112.97178396998177,28.15939492833451
128,128,昆明理工大学,,理工,云南,206.7,129,102.856572,24.852559,102.8551867833535,24.855671550995716
129,129,新疆大学,一流大学B类 211,综合,新疆,206.7,129,87.616159,43.765046,87.61331524829168,43.763808500166235
130,130,汕头大学,,综合,广东,206.4,131,116.631809,23.412536,116.62745191767597,23.415274492361238
131,131,西南石油大学,一流学科,理工,四川,206.0,132,104.183563,30.821791,104.18111670844124,30.824213789058504
132,132,山东科技大学,,综合,山东,204.5,133,120.123712,36.005131,120.1183840921499,36.004875001690436
133,133,河南农业大学,,农业,河南,204.3,134,113.664109,34.784842,113.6580135432605,34.78593478500705
134,134,贵州大学,一流学科 211,综合,贵州,201.7,135,106.676788,26.44438,106.6731230444761,26.44794020546436
135,135,华侨大学,,综合,福建,201.4,136,118.645264,24.934317,118.64077973695828,24.937279240170632
136,136,河北师范大学,,师范,河北,201.1,137,114.517366,37.994022,114.51138466590646,37.993382406433405
137,137,黑龙江大学,,综合,黑龙江,201.0,138,126.622339,45.708441,126.6164235600998,45.70650851293677
138,138,中国计量大学,,理工,浙江,201.0,138,120.363907,30.318892,120.35932784915423,30.321188172210874
139,139,陕西科技大学,,理工,陕西,198.6,140,108.977594,34.38103,108.97282344828332,34.38248964840941
140,140,沈阳农业大学,,农业,辽宁,196.8,141,123.570051,41.826563,123.56430676623626,41.82445674608708
141,141,天津师范大学,,师范,天津,196.5,142,117.122435,39.062144,117.11601379204045,39.061018514521216
142,142,湖北工业大学,,理工,湖北,196.3,143,114.309722,30.479725,114.3042876947327,30.482173161705443
143,143,海南大学,一流学科 211,综合,海南,196.2,144,110.328752,20.056739,110.3243942367987,20.05882100585609
144,144,济南大学,,综合,山东,195.4,145,116.964624,36.614668,116.95895351516715,36.61455236877113
145,145,山东农业大学,,农业,山东,194.7,146,117.154179,36.164227,117.14813797819325,36.16403025983995
146,146,常州大学,,理工,江苏,194.6,147,119.957948,31.683504,119.95324992179991,31.68558134293765
147,147,温州大学,,综合,浙江,194.6,147,120.695224,27.917666,120.69118529809595,27.920950143257425
148,148,重庆邮电大学,,理工,重庆,193.7,149,106.607808,29.531873,106.6041159952845,29.534777703658026
149,149,齐鲁工业大学,,理工,山东,192.6,150,118.057846,36.794289,118.05177286339021,36.79378459255306
150,150,曲阜师范大学,,师范,山东,189.8,151,116.972711,35.59635,116.9671195523857,35.59657580380064
151,151,武汉工程大学,,理工,湖北,188.6,152,114.390726,30.5033,114.38518599706508,30.5056113826394
152,152,湖南农业大学,,农业,湖南,187.9,153,113.088798,28.182275,113.08292839292987,28.18544446207618
153,153,天津工业大学,一流学科,理工,天津,187.4,154,117.111675,39.062278,117.10525235539747,39.06114693320421
154,154,安徽农业大学,,农业,安徽,187.0,155,117.257757,31.86052,117.25227064834075,31.862536293545386
155,155,江苏科技大学,,理工,江苏,186.8,156,120.570656,31.895703,120.56640266892973,31.897838861745974
156,156,浙江农林大学,,林业,浙江,186.0,157,119.729509,30.233838,119.72461472786567,30.236312854363717
157,157,北方工业大学,,理工,北京,185.7,158,116.20649,39.929413,116.20038759691984,39.928154755928944
158,158,广西师范大学,,师范,广西,184.7,159,108.349109,22.836028,108.34507089362914,22.83874034703885
159,159,吉林农业大学,,农业,吉林,184.4,160,125.410385,43.810433,125.40373837220946,43.80787555607114
160,160,青岛科技大学,,理工,山东,183.8,161,120.386711,36.150162,120.38157015681702,36.149867184860454
161,161,四川农业大学,一流学科 211,农业,四川,183.3,162,102.995598,29.9775,102.99381197377969,29.980218180890997
162,162,西北师范大学,,师范,甘肃,183.3,162,103.73571,36.099232,103.73320611693943,36.09945190053533
163,163,南通大学,,综合,江苏,183.1,164,120.906396,31.975851,120.90218028172546,31.97802125387613
164,164,石河子大学,一流学科 211,综合,新疆,182.8,165,86.071467,44.309418,86.06863954871565,44.30820072538947
165,165,上海海洋大学,一流学科,农业,上海,182.5,166,121.892161,30.885617,121.8880723528413,30.88800240380187
166,166,三峡大学,,综合,湖北,179.8,167,111.311539,30.714216,111.3058292979365,30.716613572729084
167,167,安徽工业大学,,理工,安徽,178.6,168,118.556363,31.675693,118.55132695923123,31.67780124166725
168,168,河南理工大学,,理工,河南,177.7,169,113.890398,34.792194,113.88452226491086,34.79333381087089
169,169,宁夏大学,一流学科 211,综合,宁夏,176.4,170,106.132335,38.503198,106.12775696697862,38.50257844223229
170,170,西安科技大学,,理工,陕西,175.0,171,109.195385,34.363008,109.19030400473865,34.364334565671925
171,171,上海海事大学,,理工,上海,174.6,172,121.904018,30.871598,121.8999396727128,30.873995692714992
172,172,成都理工大学,一流学科,理工,四川,174.2,173,104.147257,30.674912,104.14475156304991,30.677343320645356
173,173,南昌航空大学,,理工,江西,173.7,174,115.827603,28.649928,115.82261779432173,28.653212213653703
174,174,长春理工大学,,理工,吉林,172.7,175,125.313308,43.834725,125.30684300496213,43.83231245834283
175,175,辽宁师范大学,,师范,辽宁,172.5,176,121.563378,38.920122,121.55838686330452,38.91931410495371
176,176,西南科技大学,,理工,四川,172.1,177,104.68644,31.534838,104.68380430281744,31.53709568755027
177,177,河北农业大学,,农业,河北,171.9,178,115.447073,38.829154,115.44069424856642,38.828228726733784
178,178,中北大学,,理工,山西,171.7,179,112.44368,39.374947,112.43683622973825,39.37377180034295
179,179,青海大学,一流学科 211,综合,青海,171.6,180,101.749439,36.728139,101.74747754972641,36.72813950242141
180,180,集美大学,,综合,福建,170.7,181,118.096359,24.569562,118.09137605202727,24.572218374761064
181,181,武汉纺织大学,,理工,湖北,170.4,182,114.398806,30.485637,114.39326661694686,30.48794935609748
182,182,天津理工大学,,理工,天津,170.3,183,117.142117,39.060669,117.13571201613115,39.05956539274277
183,183,四川师范大学,,师范,四川,170.1,184,104.123474,30.610054,104.12094179959774,30.61248210668202
184,184,云南师范大学,,师范,云南,169.6,185,102.854435,24.862935,102.85304696301002,24.866042923008457
185,185,浙江海洋大学,,农业,浙江,169.6,185,122.190042,29.963449,122.1858405130105,29.96581767960172
186,186,天津科技大学,,理工,天津,169.5,187,117.710692,39.089416,117.7044150776182,39.08847528553058
187,187,湖南科技大学,,综合,湖南,169.4,188,112.916891,27.903172,112.91150638116808,27.906670939199568
188,188,重庆交通大学,,理工,重庆,169.1,189,106.57283,29.489235,106.56914045548478,29.492140879486715
189,189,长江大学,,综合,湖北,168.4,190,112.212776,30.334261,112.20702535808732,30.336787537255923
190,190,兰州理工大学,,理工,甘肃,168.1,191,103.77571,36.054676,103.77320410601328,36.0549099533222
191,191,山东理工大学,,理工,山东,168.1,191,118.001824,36.813618,117.995907099082,36.81325146457636
192,192,安徽理工大学,,理工,安徽,167.0,193,117.00032,32.653882,116.9949100249283,32.65593510098735
193,193,烟台大学,,综合,山东,167.0,193,121.459149,37.475408,121.45395782290042,37.47444693652296
194,194,大连工业大学,,理工,辽宁,165.9,195,121.526276,38.975506,121.52116113284956,38.974578036493256
195,195,哈尔滨理工大学,,理工,黑龙江,165.5,196,126.616657,45.714903,126.61074649837121,45.71297599456791
196,196,沈阳师范大学,,师范,辽宁,165.5,196,123.412537,41.913624,123.40637233024381,41.911179956127796
197,197,延边大学,一流学科 211,综合,吉林,165.4,198,129.48838,42.912091,129.4813487637336,42.90954381557572
198,198,内蒙古农业大学,,农业,内蒙古,165.3,199,111.706694,40.808357,111.69984178476683,40.806983073088446
199,199,河南科技大学,,综合,河南,164.9,200,113.637549,34.720551,113.63149853226602,34.72175057777997
200,200,南华大学,,综合,湖南,164.1,201,101.283236,25.200163,101.28170868984279,25.203091599733515
201,201,哈尔滨师范大学,,师范,黑龙江,164.0,202,126.62127,45.723665,126.61535340309527,45.721737066896914
202,202,石家庄铁道大学,,理工,河北,163.5,203,114.508511,38.083381,114.5024826721845,38.08273377940049
203,203,北京信息科技大学,,理工,北京,163.4,204,116.38197,39.988892,116.37573187600955,39.98749915901535
204,204,沈阳建筑大学,,理工,辽宁,162.5,205,123.51595,41.74323,123.51005753441842,41.7409997714085
205,205,青岛农业大学,,农业,山东,162.4,206,120.395817,36.319084,120.39065658258215,36.31873660053628
206,206,上海工程技术大学,,理工,上海,161.7,207,121.205007,31.05605,121.20055351607053,31.058121811424535
207,207,河南工业大学,,理工,河南,161.4,208,113.549923,34.830976,113.54377631209597,34.83202379969763
208,208,江西理工大学,,理工,江西,161.1,209,114.929361,25.853103,114.92464703287129,25.856313864806182
209,209,中南林业科技大学,,林业,湖南,160.8,210,116.347,40.007599,116.34082359156454,40.006259129656065
210,210,北京农学院,,农业,北京,160.7,211,116.311673,40.096215,116.30556395004736,40.094936045580155
211,211,重庆师范大学,,师范,重庆,160.6,212,106.299454,29.613656,106.29563436481196,29.61631635956134
212,212,江西农业大学,,农业,江西,160.5,213,115.83852,28.757181,115.83355434767651,28.76041911558037
213,213,兰州交通大学,,理工,甘肃,160.5,213,103.745276,36.0997,103.74276393585167,36.09991555565972
214,214,西藏大学,一流学科 211,综合,西藏,159.7,215,91.14678,29.645518,91.1452586440087,29.648261098419844
215,215,沈阳工业大学,,理工,辽宁,159.6,216,123.251658,41.737484,123.24585610055131,41.735229688513044
216,216,华东交通大学,,理工,江西,159.4,217,115.867828,28.745691,115.86293297833289,28.748986940985098
217,217,沈阳航空航天大学,,理工,辽宁,159.2,218,123.407899,41.926975,123.4017331081912,41.92453177948921
218,218,西安邮电大学,,理工,陕西,158.9,219,108.948713,34.213552,108.94405535941587,34.21515289946075
219,219,东华理工大学,,理工,江西,158.7,220,116.354691,28.001877,116.34969498298614,28.00503399408845
220,220,东北电力大学,,理工,吉林,158.6,221,126.504189,43.823273,126.49830689904998,43.82087345741281
221,221,上海电力大学,,理工,上海,157.9,222,121.546776,31.27518,121.54248386430115,31.277296021017136
222,222,鲁东大学,,综合,山东,157.3,223,121.359238,37.523045,121.35402179662407,37.522059700479204
223,223,国际关系学院,,综合,北京,157.2,224,116.30677,39.992176,116.30068363658654,39.990910927844666
224,224,大连大学,,综合,辽宁,156.9,225,121.823465,39.100645,121.8184334210583,39.099646456998535
225,225,苏州科技大学,,理工,江苏,156.4,226,120.55703,31.265566,120.5527980258426,31.26772320597716
226,226,河北科技大学,,理工,河北,155.9,227,114.534811,38.046379,114.52889202737255,38.04579995041714
227,227,渤海大学,,综合,辽宁,155.8,228,116.31736,39.983707,116.31125325292923,39.98242398752842
228,228,华北理工大学,,综合,河北,155.5,229,118.179192,39.636848,118.17289263203295,39.635525679221075
229,229,甘肃农业大学,,农业,甘肃,155.4,230,103.700945,36.091873,103.69850085937621,36.0921362599986
230,230,北京印刷学院,,理工,北京,154.1,231,116.329503,39.744558,116.323399790278,39.74326725648942
231,231,重庆理工大学,,理工,重庆,153.3,232,106.52942,29.45666,106.5256507296651,29.459489923727375
232,232,西安石油大学,,理工,陕西,153.3,232,108.653779,34.102838,108.64927431563282,34.104467469796255
233,233,海南师范大学,,师范,海南,152.8,234,110.344988,19.998159,110.340597387067,20.00016171966812
234,234,上海应用技术大学,,理工,上海,151.6,235,121.422595,31.166042,121.41795625569375,31.167913529135618
235,235,桂林电子科技大学,,理工,广西,151.2,236,110.337107,25.281329,110.33243078657691,25.284090557248806
236,236,聊城大学,,综合,山东,150.8,237,116.01198,36.430933,116.00623400039055,36.43079348323889
237,237,郑州轻工业大学,,理工,河南,150.8,237,113.65123,34.795126,113.64515405310084,34.79623065640466
238,238,武汉轻工大学,,理工,湖北,150.0,239,114.237573,30.638471,114.23213275050699,30.64090918643259
239,239,安徽建筑大学,,理工,安徽,149.9,240,117.22809,31.74456,117.22261239420178,31.746543909484977
240,240,东北石油大学,,理工,黑龙江,149.9,240,125.149391,46.59074,125.14237697026397,46.58867289799589
241,241,成都信息工程大学,,理工,四川,149.2,242,103.917516,30.683908,103.91543286849841,30.686661418881165
242,242,东莞理工学院,,理工,广东,149.0,243,113.877857,22.9005,113.87293074010873,22.90343999460347
243,243,大连交通大学,,理工,辽宁,148.1,244,121.586442,38.924206,121.58149125767133,38.9234238808624
244,244,山东建筑大学,,理工,山东,147.5,245,117.181744,36.686719,117.17569163524698,36.686354273159665
245,245,西华师范大学,,师范,四川,147.4,246,114.529709,33.768277,114.52421991589694,33.769816660478675
246,246,西安工程大学,,理工,陕西,147.2,247,109.186238,34.36514,109.1811425412385,34.36644898367817
247,247,贵州师范大学,,师范,贵州,146.7,248,106.635649,26.386053,106.63208953669873,26.389662643135864
248,248,成都大学,,综合,四川,146.3,249,104.189026,30.651446,104.1865976792775,30.653963617146623
249,249,西安工业大学,,理工,陕西,145.9,250,108.983039,34.377929,108.97824691330912,34.379375195000684
250,250,浙大宁波理工学院,,理工,浙江,145.1,251,121.569672,29.815443,121.5655523209197,29.818057456575552
251,251,佛山科学技术学院,,理工,广东,144.6,252,113.100107,23.024339,113.09461798447495,23.02687964027252
252,252,山西农业大学,,农业,山西,143.8,253,112.587429,37.424047,112.5812355469099,37.423587193257916
253,253,青岛理工大学,,理工,山东,143.6,254,120.205632,35.973277,120.20054275145645,35.9731604490528
254,254,华北水利水电大学,,理工,河南,143.5,255,113.674683,34.811325,113.66856641447652,34.812370468371626
255,255,厦门理工学院,,理工,福建,143.2,256,118.08573,24.62394,118.08074389194041,24.62660425661685
256,256,北京电子科技学院,,理工,北京,142.9,257,116.279773,39.837164,116.27374456429361,39.835940924732654
257,257,南京工程学院,,理工,江苏,142.7,258,118.881403,31.925978,118.87637973617151,31.928155621819265
258,258,北京联合大学,,综合,北京,142.2,259,116.427048,39.990882,116.42080543179831,39.989482276234
259,259,长春工业大学,,理工,吉林,141.6,260,125.299472,43.827263,125.2930409481215,43.82486848057812
260,260,辽宁工程技术大学,,理工,辽宁,141.3,261,120.780132,40.624062,120.77484127015629,40.62257518447308
261,261,湖州师范学院,,师范,浙江,141.1,262,120.134117,30.874626,120.12930433983446,30.876697657118626
262,262,江汉大学,,综合,湖北,140.5,263,114.159289,30.51214,114.15366412115027,30.51450399880023
263,263,辽宁石油化工大学,,理工,辽宁,140.2,264,123.234668,41.746311,123.22886754401789,41.74404876256821
264,264,青海师范大学,,师范,青海,140.1,265,101.749737,36.745885,101.74777479574938,36.745873961165124
265,265,吉林师范大学,,师范,吉林,139.9,266,125.213919,43.780231,125.20751829068905,43.77781567647577
266,266,北京石油化工学院,,理工,北京,139.7,267,116.325768,39.748175,116.31967224636449,39.74689082824132
267,267,内蒙古师范大学,,师范,内蒙古,139.7,267,111.694234,40.80459,111.68741223866418,40.803240652385796
268,268,中国民航大学,,理工,天津,139.1,269,117.354309,39.102642,117.34783145948519,39.10153378740469
269,269,辽宁工业大学,,理工,辽宁,138.7,270,121.125451,41.145791,121.11979457068936,41.14369570238239
270,270,湖南工业大学,,理工,湖南,138.6,271,113.106165,27.824002,113.10031576939285,27.827118031638967
271,271,延安大学,,综合,陕西,138.5,272,109.463028,36.619962,109.45752600740491,36.6197594015484
272,272,西华大学,,综合,四川,138.2,273,103.95492,30.777764,103.95276557840754,30.78041807544725
273,273,桂林理工大学,,理工,广西,138.0,274,110.299312,25.063343,110.29473100418693,25.066181004811053
274,274,河北工程大学,,理工,河北,137.0,275,114.49876,36.574797,114.4928614183141,36.574616152682395
275,275,沈阳化工大学,,理工,辽宁,137.0,275,123.234668,41.746311,123.22886754401789,41.74404876256821
276,276,绍兴文理学院,,师范,浙江,136.8,277,120.571268,29.98114,120.56717031758248,29.983762524512244
277,277,安徽工程大学,,理工,安徽,136.6,278,118.41375,31.340243,118.40833985287779,31.342079111407493
278,278,浙江科技学院,,理工,浙江,135.9,279,120.024421,30.218984,120.01969136951497,30.22138561716735
279,279,盐城工学院,,理工,江苏,135.0,280,120.176971,33.400136,120.17204973689871,33.401559936869184
280,280,盐城师范学院,,师范,江苏,134.8,281,120.157592,33.383776,120.15261306006033,33.38517345080528
281,281,山西师范大学,,师范,山西,134.5,282,111.504325,36.07878,111.4980411417383,36.07884351869214
282,282,赣南师范大学,,师范,江西,133.9,283,114.886474,25.796003,114.88177419336608,25.799181425051074
283,283,大连海洋大学,,农业,辽宁,133.7,284,121.555454,38.868233,121.55044828582263,38.86744036452242
284,284,内蒙古工业大学,,理工,内蒙古,133.6,285,111.68372,40.849235,111.67691935119021,40.84786966274141
285,285,淮阴师范学院,,师范,江苏,133.3,286,119.005457,33.641576,119.00005173414294,33.64300507333746
286,286,信阳师范学院,,师范,河南,133.1,287,114.124345,32.162588,114.11848721112415,32.16454338179192
287,287,安庆师范大学,,师范,安徽,132.9,288,117.003303,30.608999,116.9980655954587,30.611420803454553
288,288,合肥学院,,理工,安徽,132.8,289,117.255203,31.752979,117.24972798549867,31.75497707739853
289,289,云南农业大学,,农业,云南,132.6,290,102.749651,25.128862,102.74816047882763,25.131800009867323
290,290,辽宁科技大学,,理工,辽宁,132.5,291,123.063495,41.105729,123.05772420779351,41.10364586324056
291,291,南宁师范大学,,师范,广西,132.3,292,108.346669,22.832016,108.34263561322418,22.834734248333138
292,292,沈阳理工大学,,理工,辽宁,132.2,293,123.493776,41.72783,123.48780342759424,41.72553513773288
293,293,内蒙古民族大学,,综合,内蒙古,131.3,294,122.253176,43.628835,122.24762956499109,43.626464675397784
294,294,新疆师范大学,,师范,新疆,131.2,295,87.587026,43.905011,87.58417673778564,43.90385688105388
295,295,湖北师范大学,,师范,湖北,130.8,296,115.063991,30.226583,115.05854780036906,30.228961530193907
296,296,重庆科技学院,,理工,重庆,130.6,297,106.319005,29.587767,106.31514340255426,29.5904019190044
297,297,淮阴工学院,,理工,江苏,130.6,297,119.036003,33.552653,119.03049797669738,33.55402727823232
298,298,吉林建筑大学,,理工,吉林,130.6,297,125.407666,43.79522,125.40102164514197,43.79265465595
299,299,中原工学院,,理工,河南,130.4,300,113.589593,34.746245,113.58354196237377,34.74743861930995
300,300,北华大学,,综合,吉林,130.2,301,126.562866,43.810677,126.55720164158532,43.808422320052756
301,301,嘉兴学院,,综合,浙江,130.2,301,120.720484,30.736445,120.71618626773788,30.738769422328048
302,302,临沂大学,,综合,山东,129.8,303,118.28975,35.119762,118.28411681765213,35.12026230392814
303,303,吉首大学,,综合,湖南,129.7,304,109.72486,28.288438,109.7201457456365,28.291843897246302
304,304,景德镇陶瓷大学,,理工,江西,129.5,305,117.316779,29.328868,117.31142339310236,29.331486226672837
305,305,广东技术师范大学,,师范,广东,129.3,306,113.337005,23.146076,113.33156573547907,23.14864707451196
306,306,淮北师范大学,,师范,安徽,128.7,307,116.811015,33.983799,116.80562676220754,33.985232187339676
307,307,广东海洋大学,,农业,广东,128.6,308,110.300832,21.151215,110.29647408592908,21.153709313736027
308,308,长江师范学院,,师范,重庆,128.4,309,107.390884,29.701571,107.38625787475911,29.704052655868633
309,309,宁波工程学院,,理工,浙江,128.4,309,121.613244,29.909587,121.60914755636736,29.91221491181117
310,310,上海海关学院,,综合,上海,128.0,311,121.578106,31.16865,121.57389065565053,31.17086932781146
311,311,黑龙江八一农垦大学,,农业,黑龙江,127.8,312,125.174437,46.587453,125.16747827790977,46.5854301685638
312,312,江西科技师范大学,,师范,江西,127.0,313,115.835198,28.735875,115.83022550191217,28.739121093313756
313,313,安阳师范学院,,师范,河南,125.9,314,114.366493,36.058769,114.36042912395314,36.05863642877444
314,314,西南林业大学,,林业,云南,125.9,314,103.986214,30.699631,103.98396336062048,30.702243018446218
315,315,新疆农业大学,,农业,新疆,125.5,316,87.56745,43.810825,87.56457772323525,43.80959483590756
316,316,常熟理工学院,,综合,江苏,125.2,317,120.736697,31.608656,120.732310404195,31.610597774730916
317,317,闽南师范大学,,师范,福建,124.9,318,117.645363,24.507475,117.64058671588481,24.510463551800566
318,318,天津城建大学,,理工,天津,124.9,318,117.095443,39.094966,117.08902545401428,39.09381554287738
319,319,福建工程学院,,理工,福建,124.7,320,119.194223,26.038543,119.1893931884704,26.041600941283
320,320,沈阳大学,,综合,辽宁,124.5,321,123.4577,41.820811,123.45160135097507,41.81841711258334
321,321,五邑大学,,综合,广东,124.4,322,113.084587,22.590401,113.07913849700343,22.593092213214938
322,322,内蒙古科技大学,,综合,内蒙古,124.2,323,109.833262,40.623439,109.82753142938581,40.622289647078226
323,323,江苏理工学院,,理工,江苏,123.5,324,119.918224,31.750682,119.9135501475131,31.752820942514063
324,324,上海第二工业大学,,理工,上海,123.4,325,121.652241,31.260196,121.64799240543906,31.262336104432755
325,325,浙大城市学院,,理工,浙江,123.0,326,120.155627,30.328467,120.15091611405798,30.330782173706627
326,326,太原科技大学,,理工,山西,122.7,327,112.492633,37.875528,112.48612165950422,37.874831472133295
327,327,岭南师范学院,,师范,广东,122.6,328,110.349556,21.26952,110.34508795024921,21.271925682365254
328,328,天津农学院,,农业,天津,122.2,329,117.101466,39.091612,117.09504489812903,39.09046236946888
329,329,塔里木大学,,综合,新疆,121.5,330,81.2911,40.54393,81.28829645262044,40.54335754927761
330,330,南京晓庄学院,,师范,江苏,121.3,331,118.75155,32.037281,118.74632684687886,32.03931399479909
331,331,大理大学,,综合,云南,120.9,332,100.156044,25.673575,100.15481310256607,25.676523479305995
332,332,井冈山大学,,综合,江西,120.9,332,115.032043,27.111846,115.02693938216446,27.115097165996044
333,333,湖南理工学院,,理工,湖南,120.8,334,112.952023,27.977413,112.94657413154205,27.980882376802036
334,334,江苏海洋大学,,理工,江苏,120.8,334,119.21956,34.60708,119.21401708520028,34.608097080649706
335,335,台州学院,,综合,浙江,120.6,336,121.388423,28.650662,121.38399301596247,28.653613062701552
336,336,闽江学院,,理工,福建,120.4,337,119.169113,26.064703,119.1642291301684,26.067731816292383
337,337,黄冈师范学院,,师范,湖北,120.0,338,114.92983,30.44666,114.92476703147098,30.449332266631515
338,338,重庆文理学院,,综合,重庆,119.9,339,105.938205,29.350618,105.93470299968946,29.35359884673423
339,339,浙江万里学院,,理工,浙江,119.9,339,121.631006,29.826757,121.6269032943743,29.829375165173957
340,340,齐齐哈尔大学,,综合,黑龙江,119.7,341,123.926859,47.353873,123.92030688051042,47.35183260455978
341,341,四川轻化工大学,,理工,四川,119.7,341,104.765435,29.334845,104.76274172237623,29.33769408034599
342,342,南昌工程学院,,理工,江西,119.6,343,116.024488,28.687315,116.01942299712114,28.690432806857203
343,343,天津职业技术师范大学,,师范,天津,119.4,344,117.299122,39.055274,117.29279659401013,39.05429389571784
344,344,上海电机学院,,理工,上海,119.1,345,121.546167,31.273593,121.54187326427027,31.275708284865175
345,345,湖北科技学院,,综合,湖北,119.0,346,114.404633,30.472013,114.39909585319461,30.47432815896904
346,346,陕西理工大学,,理工,陕西,118.8,347,107.054662,33.070776,107.05004082871197,33.0725926794118
347,347,内江师范学院,,师范,四川,118.5,348,105.050952,29.588901,105.04775958658092,29.59149406270575
348,348,合肥师范学院,,师范,安徽,118.4,349,117.274808,31.853878,117.26930729464762,31.855885802110272
349,349,阜阳师范大学,,师范,安徽,116.6,350,115.7864,32.894118,115.78095608316981,32.896062880548456
350,350,南阳师范学院,,师范,河南,116.4,351,112.536167,32.993422,112.53033010927348,32.99542379252118
351,351,贵州师范学院,,师范,贵州,116.2,352,106.796892,26.642097,106.79307274751092,26.64563388533642
352,352,徐州工程学院,,理工,江苏,115.8,353,117.207931,34.216056,117.20219020046562,34.21732466391606
353,353,洛阳师范学院,,师范,河南,115.4,354,112.47291,34.65657,112.46669259132044,34.65759295404489
354,354,仲恺农业工程学院,,农业,广东,115.4,354,113.280441,23.107883,113.27510289578485,23.110559139648757
355,355,长春师范大学,,师范,吉林,115.2,356,125.392572,43.910114,125.3859156172024,43.90761788430091
356,356,湖北文理学院,,综合,湖北,114.8,357,112.042479,32.000432,112.03646283178635,32.00245766155213
357,357,宝鸡文理学院,,师范,陕西,114.5,358,107.210663,34.346859,107.20595361208069,34.348254751212025
358,358,安徽科技学院,,师范,安徽,114.2,359,117.251656,31.877741,117.24617011979419,31.879760806749506
359,359,长沙学院,,理工,湖南,114.0,360,113.026326,28.245037,113.02060364650256,28.248326979869375
360,360,衡阳师范学院,,师范,湖南,113.8,361,112.680838,26.875759,112.67549241687689,26.87926326902839
361,361,无锡学院,,综合,江苏,113.3,362,120.225758,31.570275,120.22113394418967,31.572205316976913
362,362,滨州学院,,师范,山东,113.1,363,117.98919,37.385168,117.98324793923842,37.384482456131856
363,363,长春大学,,综合,吉林,112.8,364,125.320911,43.834843,125.31442619618542,43.83241684017631
364,364,黑龙江科技大学,,理工,黑龙江,112.6,365,126.656734,45.820833,126.65073280691097,45.81888578338596
365,365,泉州师范学院,,师范,福建,112.6,365,118.670942,24.868273,118.66641406398445,24.871199112573862
366,366,河北科技师范学院,,师范,河北,112.0,367,119.550694,39.909488,119.54481506472837,39.90832088366494
367,367,广西科技大学,,理工,广西,111.8,368,109.44557,24.332836,109.44098561884346,24.335558386912876
368,368,江苏第二师范学院,,师范,江苏,111.5,369,118.754674,32.058518,118.74944874258401,32.06055622120884
369,369,西藏农牧学院,,农业,西藏,111.1,370,94.341601,29.666413,94.34046809496755,29.669133306743255
370,370,贵州理工学院,,理工,贵州,111.0,371,106.65795,26.559262,106.65432933528443,26.56288486774072
371,371,咸阳师范学院,,师范,陕西,111.0,371,108.728199,34.361419,108.72349561211027,34.36282728363884
372,372,九江学院,,综合,江西,110.8,373,116.014909,29.682816,116.0097911281419,29.685334391537527
373,373,绵阳师范学院,,师范,四川,110.6,374,104.59809,31.453695,104.59567477184774,31.456079388357917
374,374,湖北汽车工业学院,,理工,湖北,110.5,375,114.24678,30.636959,114.24135125359422,30.639402221546487
375,375,常州工学院,,理工,江苏,109.7,376,119.943923,31.870371,119.9392273519269,31.872502097223567
376,376,金陵科技学院,,综合,江苏,109.6,377,118.811218,32.121738,118.80604592949797,32.123841966323205
377,377,黑龙江工程学院,,理工,黑龙江,109.4,378,126.52532,45.871021,126.51920742305649,45.869017691386794
378,378,乐山师范学院,,师范,四川,109.4,378,103.750816,29.559643,103.7486059967711,29.56239198955356
379,379,潍坊学院,,综合,山东,109.2,380,119.180186,36.717414,119.17433248335547,36.716987494782614
380,380,佳木斯大学,,综合,黑龙江,108.8,381,130.361339,46.805596,130.35345426794743,46.803308562610646
381,381,唐山师范学院,,师范,河北,108.5,382,118.173106,39.673655,118.1667838047108,39.67231443917491
382,382,山东交通学院,,理工,山东,108.4,383,116.793072,36.537932,116.7873964052262,36.537772050069314
383,383,广东石油化工学院,,综合,广东,107.6,384,110.923109,21.677262,110.9186075212679,21.68005003902079
384,384,河北建筑工程学院,,理工,河北,107.6,384,114.530399,38.037707,114.5244644127028,38.03711412916493
385,385,湖北工程学院,,综合,湖北,107.4,386,114.389849,30.503821,114.38430903564557,30.50613286619395
386,386,惠州学院,,综合,广东,107.3,387,114.421664,23.038614,114.41670205459839,23.04114246828634
387,387,成都工业学院,,理工,四川,107.1,388,103.882116,30.787674,103.88002901149535,30.790370915429772
388,388,丽水学院,,师范,浙江,107.1,388,119.903648,28.456803,119.89923467073746,28.460221404219496
389,389,黄淮学院,,师范,河南,106.8,390,114.00705,33.008121,114.00122280393114,33.00999637555278
390,390,许昌学院,,理工,河南,106.7,391,113.871198,34.046757,113.86535869219387,34.048331972200494
391,391,北华航天工业学院,,理工,河北,106.6,392,116.740051,39.529408,116.73402771595835,39.528241533917296
392,392,湖北第二师范学院,,师范,湖北,106.5,393,114.449152,30.480612,114.44367777657013,30.482962574051648
393,393,湖南第一师范学院,,师范,湖南,106.2,394,112.867237,28.196405,112.8618132222376,28.199911832719224
394,394,湖南文理学院,,综合,湖南,105.9,395,113.176739,28.249168,113.17093883353682,28.252421649299777
395,395,周口师范学院,,师范,河南,105.7,396,114.682609,33.635594,114.67717433767095,33.63718303502908
396,396,成都师范学院,,师范,四川,105.5,397,103.828873,30.676146,103.82670477274792,30.678815595627228
397,397,重庆三峡学院,,综合,重庆,105.5,397,108.383511,30.794618,108.37893233912469,30.796896318661883
398,398,铜仁学院,,综合,贵州,105.5,397,109.22216,27.786767,109.21760886167556,27.790089523408312
399,399,遵义师范学院,,师范,贵州,105.4,400,106.915237,27.704388,106.91143969191067,27.707928971868135
400,400,上饶师范学院,,师范,江西,105.0,401,117.970296,28.416874,117.96527400611478,28.420240721200436
401,401,商丘师范学院,,师范,河南,104.8,402,115.631152,34.423498,115.62568863805228,34.424904638009835
402,402,宜春学院,,综合,江西,104.7,403,114.359586,27.793183,114.35429583705093,27.796321898943074
403,403,浙江水利水电学院,,理工,浙江,104.7,403,120.374055,30.314254,120.36946566389372,30.316536558565282
404,404,滁州学院,,师范,安徽,104.6,405,118.302516,32.291814,118.29714811178368,32.29385499872357
405,405,吉林化工学院,,理工,吉林,104.4,406,126.618397,43.89992,126.61276122387976,43.89774515513224
406,406,德州学院,,综合,山东,104.1,407,116.331474,37.467262,116.32563592990074,37.466444239966194
407,407,肇庆学院,,综合,广东,104.0,408,112.495301,23.107272,112.49011736152919,23.109937238173277
408,408,泰山学院,,综合,山东,103.5,409,117.110119,36.1937,117.1040417009113,36.19345022169332
409,409,广东第二师范学院,,师范,广东,103.2,410,113.185529,23.404974,113.18011139466805,23.407494990675147
410,410,沈阳工程学院,,理工,辽宁,102.7,411,123.418933,41.91944,123.4127679558103,41.91699828557628
411,411,榆林学院,,师范,陕西,102.3,412,109.721541,38.293135,109.7159787699403,38.292634446926414
412,412,长春工程学院,,理工,吉林,102.2,413,125.281115,43.854532,125.27471318008493,43.852174938002925
413,413,洛阳理工学院,,综合,河南,102.0,414,112.422346,34.612397,112.41603122239448,34.61337450578428
414,414,韩山师范学院,,师范,广东,101.3,415,116.65847,23.661964,116.65404635717512,23.664665567733017
415,415,河北科技工程职业技术大学,,理工,河北,101.2,416,114.451972,37.085969,114.44584776240399,37.08532608323023
416,416,天水师范学院,,师范,甘肃,101.2,416,105.699119,34.569883,105.69524396908912,34.571248809944606
417,417,北部湾大学,,综合,广西,101.1,418,108.616631,21.900398,108.61294634665512,21.903299692432647
418,418,西安文理学院,,师范,陕西,101.1,418,108.913598,34.221011,108.90900788459372,34.222647790998494
419,419,齐鲁师范学院,,师范,山东,100.9,420,117.4963,36.658379,117.49021811843261,36.658083105679
420,420,皖西学院,,师范,安徽,100.9,420,116.525078,31.765627,116.51999473836736,31.767698097
421,421,哈尔滨学院,,综合,黑龙江,100.6,422,126.606999,45.704504,126.60109541934995,45.702578063885134
422,422,湖南城市学院,,综合,湖南,100.3,423,112.387207,28.539665,112.38146198894124,28.54278547739694
423,423,通化师范学院,,师范,吉林,100.3,423,125.988453,41.746543,125.98268688296,41.744273121972725
424,424,防灾科技学院,,理工,河北,100.0,425,116.801041,39.953777,116.79497614442046,39.952583126650076
425,425,宜宾学院,,综合,四川,99.9,426,104.61345,28.79421,104.61113437321117,28.797643568254742
426,426,河北工业职业技术大学,,理工,河北,99.5,427,114.462368,37.97716,114.45617214138797,37.97636281306632
427,427,兰州城市学院,,综合,甘肃,99.4,428,103.69785,36.09552,103.69541288351915,36.09578765595038
428,428,河南科技学院,,师范,河南,99.2,429,113.672872,34.68395,113.66677192773655,34.68512532391132
429,429,宁夏师范学院,,师范,宁夏,99.0,430,106.285606,36.013136,106.28137835915575,36.01330315294418
430,430,曲靖师范学院,,师范,云南,99.0,430,103.752175,25.524454,103.75011897283618,25.527429709177724
431,431,渭南师范学院,,师范,陕西,98.9,432,109.465193,34.491722,109.45989689543204,34.492913645349965
432,432,玉林师范学院,,师范,广西,98.8,433,110.198287,22.67918,110.19384256754154,22.68199999139412
433,433,南京特殊教育师范学院,,师范,江苏,98.4,434,118.829971,32.127929,118.82483692206628,32.13006820205547
434,434,华北科技学院,,理工,河北,98.2,435,116.804718,39.953941,116.79865847627633,39.952752666657325
435,435,唐山学院,,理工,河北,98.0,436,118.166193,39.676367,118.15985017612414,39.6750131997137
436,436,韶关学院,,综合,广东,97.9,437,113.669633,24.77384,113.66439043808123,24.77682633013304
437,437,河西学院,,综合,甘肃,97.6,438,117.792848,39.246038,117.78656147748288,39.24499091206009
438,438,黄山学院,,师范,安徽,97.6,438,118.29198,29.71409,118.28685577544086,29.71657593781331
439,439,中国民用航空飞行学院,,理工,四川,97.3,440,104.307564,30.950354,104.30509251143737,30.952726243947524
440,440,湖南工程学院,,理工,湖南,97.2,441,113.06881,28.275771,113.06296311417992,28.278962338556532
441,441,三明学院,,综合,福建,96.8,442,117.565445,26.19338,117.56054590936051,26.196770276121597
442,442,泰州学院,,师范,江苏,96.7,443,119.938276,32.475661,119.93353181784254,32.47786746843143
443,443,湖北理工学院,,理工,湖北,96.5,444,115.026249,30.208261,115.02091701762565,30.210729802962128
444,444,石家庄学院,,师范,河北,96.5,444,114.60489,38.035943,114.59911666420223,38.035460545889364
445,445,莆田学院,,综合,福建,96.3,446,119.012131,25.44674,119.0073974052241,25.449521834072904
446,446,龙岩学院,,综合,福建,96.2,447,117.026978,25.030844,117.022087906997,25.033593103422856
447,447,内蒙古科技大学包头师范学院,,综合,内蒙古,96.1,448,109.885646,40.655371,109.88001829264985,40.65428181704234
448,448,安顺学院,,综合,贵州,95.8,449,105.901043,26.243851,105.89773885636515,26.247422857110614
449,449,南昌师范学院,,师范,江西,95.8,449,115.803861,28.722631,115.79881280574756,28.72582960713174
450,450,四川文理学院,,综合,四川,95.5,451,104.163909,30.614124,104.16143508425687,30.61660992760624
451,451,廊坊师范学院,,师范,河北,95.2,452,116.67006,39.524921,116.66420035032476,39.52386123569011
452,452,玉溪师范学院,,师范,云南,95.2,452,102.563459,24.339312,102.56223522578068,24.342403542211052
453,453,河南城建学院,,理工,河南,95.1,454,113.189536,33.76911,113.18324925771665,33.770528443551996
454,454,重庆第二师范学院,,师范,重庆,95.0,455,106.576142,29.510449,106.5724542373808,29.51335016365158
455,455,西昌学院,,综合,四川,94.9,456,102.215475,27.9482,102.21394836744531,27.951628020355653
456,456,凯里学院,,综合,贵州,94.8,457,107.892324,26.524356,107.88830786617638,26.528014214204056
457,457,牡丹江师范学院,,师范,黑龙江,94.8,457,129.561043,44.589887,129.55396089223012,44.587909906452126
458,458,四川旅游学院,,综合,四川,94.6,459,104.279019,30.580538,104.27662163235787,30.583135385974845
459,459,郑州师范学院,,师范,河南,94.4,460,113.65469,34.862647,113.64860174835363,34.863674459729516
460,460,大庆师范学院,,综合,黑龙江,94.3,461,124.8625,46.63782,124.856031547465,46.63603902928165
461,461,攀枝花学院,,综合,四川,94.3,461,101.725767,26.568038,101.72418708687,26.571598148086846
462,462,昆明学院,,综合,云南,94.2,463,102.680283,25.029425,102.67891654656644,25.032453369263315
463,463,衢州学院,,理工,浙江,94.1,464,118.868376,28.981067,118.86358740832412,28.98414794904363
464,464,白城师范学院,,师范,吉林,93.6,465,122.80886,45.615384,122.8029244241728,45.613409791519295
465,465,吉林工程技术师范学院,,师范,吉林,93.6,465,125.3187,43.937565,125.31220477768129,43.93520204237592
466,466,淮南师范学院,,师范,安徽,93.5,467,116.96082,32.613196,116.95556261567964,32.61537269741279
467,467,湖州学院,,师范,浙江,93.5,467,120.124895,30.872592,120.1200633807553,30.874655050372095
468,468,嘉应学院,,综合,广东,93.5,467,116.127319,24.326977,116.12249072470448,24.329617638088777
469,469,南阳理工学院,,理工,河南,93.5,467,112.552877,32.967697,112.5470889957916,32.96975682028787
470,470,营口理工学院,,理工,辽宁,93.5,467,122.246299,40.62945,122.24113702495333,40.62791233204105
471,471,商洛学院,,综合,陕西,93.4,472,109.95596,33.863487,109.95094759852496,33.86514423433198
472,472,陇东学院,,师范,甘肃,92.4,473,107.638046,35.731148,107.63331848641837,35.73154980916934
473,473,保定学院,,师范,河北,92.3,474,115.578289,38.880311,115.57233370726368,38.879676513774314
474,474,苏州城市学院,,综合,江苏,92.3,474,120.58415,31.218197,120.57997382596095,31.220412734542293
475,475,安康学院,,综合,陕西,92.2,476,109.034082,32.683587,109.0292156461029,32.68565681195221
476,476,湖南科技学院,,综合,湖南,91.7,477,112.919336,28.219268,112.91392434816412,28.22280241921211
477,477,山东管理学院,,综合,山东,91.7,477,116.784964,36.530134,116.77928144787053,36.52996862637166
478,478,贵阳学院,,综合,贵州,91.5,479,106.773567,26.556246,106.7697398489021,26.55974829704783
479,479,辽宁科技学院,,理工,辽宁,91.4,480,123.713805,41.45877,123.70792722224967,41.456614033095114
480,480,武夷学院,,综合,福建,91.3,481,118.00425,27.709625,117.99919160173236,27.712854756414472
481,481,鞍山师范学院,,师范,辽宁,91.2,482,122.995967,41.076153,122.99048923170817,41.07427337255048
482,482,湘南学院,,理工,湖南,91.1,483,113.100426,25.785984,113.0947388760974,25.788810906030307
483,483,六盘水师范学院,,师范,贵州,90.9,484,104.821837,26.576646,104.8192889220091,26.580243860938584
484,484,河南牧业经济学院,,农业,河南,90.7,485,113.640594,34.86065,113.63452546273973,34.86170144588169
485,485,平顶山学院,,师范,河南,90.7,485,113.208719,33.747473,113.2024703247784,33.74892999434439
486,486,贺州学院,,综合,广西,90.6,487,111.515234,24.411377,111.50999291519835,24.414283454782037
487,487,兰州工业学院,,理工,甘肃,90.6,487,103.74665,36.052567,103.7441399508751,36.0527922313973
488,488,宁德师范学院,,师范,福建,90.5,489,119.594204,26.656655,119.58970385883825,26.660204227279063
489,489,池州学院,,师范,安徽,90.4,490,117.567732,30.643318,117.56247646244637,30.645869348662366
490,490,黔南民族师范学院,,师范,贵州,90.2,491,107.521608,26.293492,107.51742763478573,26.296941479844605
491,491,太原师范学院,,师范,山西,90.2,491,112.547,37.8345,112.54068376259798,37.833950769706846
492,492,宿州学院,,师范,安徽,90.1,493,117.077336,33.633055,117.07156695723206,33.6343505417026
493,493,山东石油化工学院,,理工,山东,89.8,494,118.543821,37.464619,118.53816524597414,37.46395403716228
494,494,海南热带海洋学院,,综合,海南,89.7,495,110.323306,20.057525,110.3189601851293,20.059617933407218
495,495,黑河学院,,综合,黑龙江,89.4,496,127.542139,50.226573,127.53488693058893,50.22495527732278
496,496,吉林农业科技学院,,农业,吉林,89.4,496,126.475571,43.953079,126.46955013485984,43.95067186606855
497,497,辽东学院,,综合,辽宁,89.4,496,124.427567,40.150883,124.42173639256315,40.14929047444609
498,498,山西大同大学,,综合,山西,89.4,496,113.34961,40.09294,113.34248896912486,40.09166100528005
499,499,西安航空学院,,理工,陕西,89.4,496,108.89228,34.26295,108.88769701248637,34.26456894674399
500,500,陕西学前师范学院,,师范,陕西,89.3,501,108.952556,34.226754,108.94788597545818,34.228342830049705
501,501,四川民族学院,,师范,四川,89.3,501,102.177748,30.109858,102.17606984360044,30.112483646449622
502,502,山东农业工程学院,,综合,山东,88.8,503,117.094778,36.69475,117.08865204619902,36.694285757652565
503,503,蚌埠学院,,理工,安徽,88.3,504,117.423095,32.889859,117.41724647014274,32.891582717920414
504,504,怀化学院,,综合,湖南,87.9,505,110.019881,27.573628,110.01514436569992,27.576895333775482
505,505,新余学院,,综合,江西,87.8,506,114.995812,27.857762,114.9907775769379,27.861073265161174
506,506,邵阳学院,,理工,湖南,87.7,507,111.438222,27.195628,111.43259818830745,27.198812039514287
507,507,楚雄师范学院,,师范,云南,87.4,508,101.550356,25.026218,101.54894142958014,25.02930932901978
508,508,河南工程学院,,理工,河南,87.4,508,113.696538,34.616148,113.69040484816024,34.61733940537202
509,509,济宁学院,,师范,山东,87.3,510,116.953453,35.551693,116.9479316097015,35.55199039020948
510,510,喀什大学,,师范,新疆,87.2,511,76.002517,39.478534,75.9995284416773,39.47827504088327
511,511,兰州文理学院,,综合,甘肃,86.9,512,103.896886,36.064625,103.89456652096857,36.0650284404267
512,512,赤峰学院,,综合,内蒙古,86.8,513,118.917203,42.241972,118.91103358284458,42.240037497975656
513,513,汉江师范学院,,师范,湖北,86.8,513,110.788302,32.616598,110.7829721013387,32.61877164405383
514,514,伊犁师范大学,,师范,新疆,86.7,515,81.305966,43.938442,81.30298243727205,43.93724148527065
515,515,贵州工程应用技术学院,,师范,贵州,86.5,516,106.70741,26.598194,106.70365776102332,26.601732479789074
516,516,邢台学院,,师范,河北,86.4,517,114.508051,37.087588,114.50213403376863,37.087091704935474
517,517,邯郸学院,,师范,河北,86.2,518,114.510107,36.577942,114.5042545511456,36.57779355141304
518,518,衡水学院,,师范,河北,86.2,518,115.661614,37.742653,115.65575283936849,37.74203857330454
519,519,晋中学院,,师范,山西,86.1,520,112.715163,37.740271,112.70871583971359,37.73962405520114
520,520,梧州学院,,综合,广西,86.0,521,111.317102,23.496771,111.3119180034589,23.499312607866568
521,521,菏泽学院,,综合,山东,85.8,522,115.466462,35.271317,115.46054449053244,35.27162213705057
522,522,红河学院,,综合,云南,85.8,522,103.424837,23.349713,103.42278233781515,23.352224017845153
523,523,甘肃民族师范学院,,师范,甘肃,85.7,524,102.894119,34.961458,102.89240997868363,34.962619778398256
524,524,呼伦贝尔学院,,综合,内蒙古,85.6,525,119.782662,49.199725,119.77534409176192,49.19779169885665
525,525,山东女子学院,,综合,山东,85.4,526,116.824208,36.55615,116.81857752809621,36.55603085580253
526,526,湖南人文科技学院,,师范,湖南,84.8,527,112.002867,27.711132,111.99733851262059,27.714438125727057
527,527,广州航海学院,,理工,广东,84.6,528,113.478964,23.101616,113.47356924042742,23.104228397657696
528,528,新乡学院,,理工,河南,84.6,528,113.942183,35.291233,113.93627061812472,35.29181651916329
529,529,百色学院,,综合,广西,84.2,530,106.608872,23.890572,106.60547624286774,23.893479618625697
530,530,沧州师范学院,,师范,河北,83.9,531,116.783943,38.285245,116.7780616465268,38.28458698625846
531,531,景德镇学院,,综合,江西,83.6,532,117.18267,29.278428,117.17735129723863,29.28106121778667
532,532,福建技术师范学院,,师范,福建,83.4,533,119.310892,25.70463,119.30610287742645,25.707479563200238
533,533,赣南科技学院,,理工,江西,83.4,533,114.916869,25.838007,114.91216790992473,25.841217308391215
534,534,广西民族师范学院,,师范,广西,83.4,533,108.319574,22.842933,108.31559197697649,22.845698127950037
535,535,荆楚理工学院,,理工,湖北,83.4,533,112.197723,31.043692,112.19187918279431,31.04588885259156
536,536,安阳工学院,,理工,河南,83.2,537,114.351798,36.065146,114.34575520033358,36.06503651053373
537,537,阿坝师范学院,,师范,四川,82.8,538,103.416773,30.924117,103.41442600721378,30.926387525164614
538,538,信阳农林学院,,农业,河南,82.8,538,114.124905,32.161295,114.11904831704129,32.16325063867256
539,539,巢湖学院,,师范,安徽,82.6,540,117.92778,31.64862,117.92255010531623,31.65077482562806
540,540,河北民族师范学院,,师范,河北,82.5,541,114.456217,38.011779,114.44999764762281,38.01097599351577
541,541,桂林航天工业学院,,理工,广西,82.3,542,110.373477,25.281796,110.36872515014464,25.284497057088615
542,542,长治学院,,师范,山西,82.2,543,113.136696,36.208809,113.13004374046102,36.208652473259576
543,543,河池学院,,综合,广西,81.0,544,108.662594,24.499464,108.65869575424914,24.502500583806317
544,544,河北环境工程学院,,综合,河北,80.9,545,119.453212,39.868374,119.4469519241481,39.866947730314266
545,545,张家口学院,,综合,河北,80.7,546,114.869087,40.843079,114.86294001570442,40.8417138678613
546,546,湖南工学院,,理工,湖南,80.6,547,112.99238,28.15773,112.98678890055348,28.161119265156152
547,547,河南工学院,,理工,河南,80.5,548,113.697165,34.617917,113.69103069135994,34.619105782274765
548,548,兴义民族师范学院,,师范,贵州,80.0,549,104.972376,25.161662,104.96972612519785,25.16466705210596
549,549,绥化学院,,综合,黑龙江,79.8,550,126.977918,46.62403,126.97158700286899,46.62213039000403
550,550,温州理工学院,,师范,浙江,79.2,551,120.706979,27.93056,120.7029187351156,27.933826689888225
551,551,保山学院,,师范,云南,79.0,552,99.16148,25.135116,99.16055947651157,25.13796961945865
552,552,山东青年政治学院,,综合,山东,78.9,553,117.239705,36.672204,117.23372726851066,36.67192907627404
553,553,长沙师范学院,,师范,湖南,78.8,554,113.082709,28.25522,113.0768404531141,28.258394565855994
554,554,枣庄学院,,综合,山东,78.1,555,117.537231,34.900274,117.53148736904087,34.901144188678
555,555,郑州工程技术学院,,理工,河南,78.1,555,113.649368,34.863612,113.64328760247867,34.86464718932239
556,556,运城学院,,师范,山西,77.9,557,110.932027,35.12396,110.92651747585057,35.124783909333246
557,557,文山学院,,师范,云南,76.9,558,104.246888,23.353363,104.2448016627595,23.356042526865714
558,558,吕梁学院,,师范,山西,76.3,559,111.143937,37.580583,111.13756173562047,37.57978648003923
559,559,新疆工程学院,,理工,新疆,75.5,560,87.580702,43.814053,87.57785087205852,43.81284011567877
560,560,普洱学院,,师范,云南,75.1,561,100.999397,22.768602,100.99810507371782,22.77152056216663
561,561,萍乡学院,,综合,江西,73.2,562,113.879916,27.626459,113.87466022847542,27.62989876373186
562,562,集宁师范学院,,师范,内蒙古,72.6,563,113.143341,41.010836,113.13607819912885,41.00906084521516
563,563,滇西科技师范学院,,师范,云南,72.2,564,100.075933,23.887267,100.07469137222336,23.889866303930454
564,564,太原工业学院,,理工,山西,71.8,565,112.540407,37.959379,112.53405643720842,37.95883688605856
565,565,新疆理工学院,,综合,新疆,71.7,566,80.217408,41.23118,80.21520853716623,41.23013521604972
566,566,广西科技师范学院,,师范,广西,71.5,567,109.386047,24.429159,109.38145136605368,24.431880873364392
567,567,昭通学院,,师范,云南,71.2,568,103.737602,27.356476,103.73548574803725,27.35988113357926
568,568,忻州师范学院,,师范,山西,71.1,569,112.72651,38.431883,112.71995858467102,38.43131320596896
569,569,河北石油职业技术大学,,理工,河北,70.7,570,114.39706,38.296091,114.39071804303182,38.295287401310745
570,570,昌吉学院,,师范,新疆,70.1,571,87.301155,44.017867,87.29807135368964,44.01657032342183
571,571,琼台师范学院,,师范,海南,69.8,572,121.009521,29.209967,121.00528114120789,29.21266642757831
572,572,鄂尔多斯应用技术学院,,综合,内蒙古,69.3,573,109.825048,39.610762,109.819411484872,39.60980274311511
573,573,黑龙江工业学院,,理工,黑龙江,68.2,574,126.68731,45.786348,126.68122823629646,45.784333257181785
574,574,新疆政法学院,,综合,新疆,66.9,575,87.572964,43.877543,87.57009842491593,43.87635929363776
575,575,山西能源学院,,综合,山西,64.9,576,112.73827,37.750315,112.7317841513991,37.749644033646575
576,576,赣东学院,,理工,江西,64.2,577,116.351303,27.988766,116.34631416371532,27.99192689848948
577,577,河套学院,,综合,内蒙古,64.1,578,120.167442,36.249313,120.16220552374855,36.249060989212296
578,578,亳州学院,,师范,安徽,63.6,579,115.768788,33.802509,115.76323295229716,33.80395095238137
579,579,豫章师范学院,,师范,江西,62.1,580,115.776719,28.665204,115.77162766294089,28.668405030960585
580,580,山西工程技术学院,,理工,山西,61.9,581,112.549415,37.88088,112.54310011317617,37.88034410918331
581,581,太原学院,,理工,山西,58.2,582,112.54748,37.833441,112.54116525152807,37.832892730845884
